{"type":"FeatureCollection","features":[{"type":"Feature","geometry":{"type":"Point","coordinates":[2.2039,44.3716]},"properties":{"nom":"Cambon","type":"concession","statut":"échu","substances":"uranium;autres éléments radioactifs;substances connexes","titulaire":"SOCIETE DES MINES DE JOUAC","departements":"Aveyron"}},{"type":"Feature","geometry":{"type":"Point","coordinates":[0.042,44.9998]},"properties":{"nom":"Landes de Trote","type":"concession","statut":"valide","substances":"uranium;autres éléments radioactifs;substances connexes","titulaire":"ORANO DEMANTELEMENT","departements":"Dordogne;Gironde"}},{"type":"Feature","geometry":{"type":"Point","coordinates":[3.5695,46.0108]},"properties":{"nom":"Lachaux","type":"concession","statut":"échu","substances":"uranium;autres éléments radioactifs;substances connexes","titulaire":"COMMISSARIAT A L' ENERGIE ATOMIQUE ET AUX ENERGIES ALTERNATIVES (CEA)","departements":"Allier;Puy-de-Dôme"}},{"type":"Feature","geometry":{"type":"Point","coordinates":[2.858,46.6282]},"properties":{"nom":"Coulangerie","type":"permis d'exploitation","statut":"échu","substances":"uranium;autres éléments radioactifs;substances connexes","titulaire":"ORANO DEMANTELEMENT","departements":"Allier"}},{"type":"Feature","geometry":{"type":"Point","coordinates":[1.8225,46.2707]},"properties":{"nom":"Anzème","type":"permis d'exploitation","statut":"échu","substances":"uranium;autres éléments radioactifs;substances connexes","titulaire":"CFMU","departements":"Creuse"}},{"type":"Feature","geometry":{"type":"Point","coordinates":[3.6184,46.2426]},"properties":{"nom":"Champ Grenier","type":"concession","statut":"valide","substances":"uranium;autres éléments radioactifs;substances connexes","titulaire":"ORANO DEMANTELEMENT","departements":"Allier"}},{"type":"Feature","geometry":{"type":"Point","coordinates":[2.0913,45.6644]},"properties":{"nom":"Millevaches","type":"concession","statut":"échu","substances":"uranium;autres éléments radioactifs;substances connexes","titulaire":"COMPAGNIE FRANCAISE DE MOKTA (CFM)","departements":"Corrèze"}},{"type":"Feature","geometry":{"type":"Point","coordinates":[-2.4295,47.3582]},"properties":{"nom":"Cormier","type":"permis d'exploitation","statut":"échu","substances":"uranium;autres éléments radioactifs;substances connexes","titulaire":"ORANO DEMANTELEMENT","departements":"Loire-Atlantique"}},{"type":"Feature","geometry":{"type":"Point","coordinates":[3.4958,45.8187]},"properties":{"nom":"Peschadoires","type":"permis exclusif de recherches","statut":"échu","substances":"uranium;autres éléments radioactifs;substances connexes","titulaire":"ELF AQUITAINE PRODUCTION","departements":"Puy-de-Dôme"}},{"type":"Feature","geometry":{"type":"Point","coordinates":[2.1023,46.2607]},"properties":{"nom":"Riots","type":"concession","statut":"échu","substances":"uranium;autres éléments radioactifs;substances connexes","titulaire":"SOCIETE DES MINES DE JOUAC","departements":"Creuse"}},{"type":"Feature","geometry":{"type":"Point","coordinates":[2.8529,46.6361]},"properties":{"nom":"La Varenne","type":"concession","statut":"valide","substances":"uranium;autres éléments radioactifs;substances connexes","titulaire":"ORANO DEMANTELEMENT","departements":"Allier"}},{"type":"Feature","geometry":{"type":"Point","coordinates":[1.2938,45.9616]},"properties":{"nom":"Lavaud","type":"concession","statut":"échu","substances":"uranium;autres éléments radioactifs;substances connexes","titulaire":"ORANO DEMANTELEMENT","departements":"Haute-Vienne"}},{"type":"Feature","geometry":{"type":"Point","coordinates":[7.3165,48.236]},"properties":{"nom":"Saint-Hippolyte","type":"concession","statut":"échu","substances":"uranium;autres éléments radioactifs;substances connexes","titulaire":"ORANO DEMANTELEMENT","departements":"Haut-Rhin"}},{"type":"Feature","geometry":{"type":"Point","coordinates":[1.3648,46.0189]},"properties":{"nom":"Saint-Sylvestre","type":"concession","statut":"échu","substances":"uranium;autres éléments radioactifs;substances connexes","titulaire":"ORANO DEMANTELEMENT","departements":"Haute-Vienne"}},{"type":"Feature","geometry":{"type":"Point","coordinates":[-0.9559,47.0264]},"properties":{"nom":"Evrunes","type":"concession","statut":"valide","substances":"uranium;autres éléments radioactifs;substances connexes","titulaire":"ORANO DEMANTELEMENT","departements":"Deux-Sèvres;Maine-et-Loire;Vendée"}},{"type":"Feature","geometry":{"type":"Point","coordinates":[2.3815,45.3771]},"properties":{"nom":"Saint-Pierre","type":"permis d'exploitation","statut":"échu","substances":"uranium;autres éléments radioactifs;substances connexes","titulaire":"SOC S C U M R A","departements":"Cantal;Corrèze"}},{"type":"Feature","geometry":{"type":"Point","coordinates":[3.775,45.5233]},"properties":{"nom":"Saint-Martin-des-Olmes","type":"permis d'exploitation","statut":"échu","substances":"uranium;autres éléments radioactifs;substances connexes","titulaire":"ORANO DEMANTELEMENT","departements":"Puy-de-Dôme"}},{"type":"Feature","geometry":{"type":"Point","coordinates":[2.0874,45.4307]},"properties":{"nom":"Darnets","type":"permis exclusif de recherches","statut":"échu","substances":"uranium;autres éléments radioactifs;substances connexes","titulaire":"SA DES MANUFACTURES DES GLACES ET PRODUITS CHIMIQUES DE ST GOBAIN, CHAUNY ET CIREY","departements":"Corrèze"}},{"type":"Feature","geometry":{"type":"Point","coordinates":[2.7861,44.8073]},"properties":{"nom":"Les Plagnes","type":"concession","statut":"échu","substances":"uranium;autres éléments radioactifs;substances connexes","titulaire":"COMPAGNIE FRANCAISE DE MOKTA (CFM)","departements":"Aveyron"}},{"type":"Feature","geometry":{"type":"Point","coordinates":[2.6204,44.019]},"properties":{"nom":"Le Roube","type":"concession","statut":"échu","substances":"uranium;autres éléments radioactifs;substances connexes","titulaire":"SOCIETE DES MINES DE JOUAC","departements":"Aveyron"}},{"type":"Feature","geometry":{"type":"Point","coordinates":[-0.0405,45.0894]},"properties":{"nom":"Fieu","type":"concession","statut":"valide","substances":"uranium;autres éléments radioactifs;substances connexes","titulaire":"ORANO DEMANTELEMENT","departements":"Charente-Maritime;Gironde"}},{"type":"Feature","geometry":{"type":"Point","coordinates":[-1.0039,46.8928]},"properties":{"nom":"Les Herbiers","type":"concession","statut":"échu","substances":"uranium;autres éléments radioactifs;substances connexes","titulaire":"ORANO DEMANTELEMENT","departements":"Vendée"}},{"type":"Feature","geometry":{"type":"Point","coordinates":[3.814,47.0876]},"properties":{"nom":"Dommartin","type":"permis exclusif de recherches","statut":"échu","substances":"uranium;autres éléments radioactifs;substances connexes","titulaire":"ORANO DEMANTELEMENT","departements":"Nièvre"}},{"type":"Feature","geometry":{"type":"Point","coordinates":[2.1096,45.1668]},"properties":{"nom":"Escoussac","type":"permis d'exploitation","statut":"échu","substances":"uranium;autres éléments radioactifs;substances connexes","titulaire":"CFMU","departements":"Corrèze"}},{"type":"Feature","geometry":{"type":"Point","coordinates":[2.6911,44.6077]},"properties":{"nom":"Falguières","type":"permis exclusif de recherches","statut":"échu","substances":"uranium;autres éléments radioactifs;substances connexes","titulaire":"ORANO DEMANTELEMENT","departements":"Aveyron"}},{"type":"Feature","geometry":{"type":"Point","coordinates":[2.7861,44.8073]},"properties":{"nom":"Les Plagnes","type":"permis d'exploitation","statut":"échu","substances":"uranium;autres éléments radioactifs;substances connexes","titulaire":"COMPAGNIE FRANCAISE DE MOKTA (CFM)","departements":"Aveyron"}},{"type":"Feature","geometry":{"type":"Point","coordinates":[2.7256,44.3854]},"properties":{"nom":"Les Plaines","type":"concession","statut":"échu","substances":"uranium;autres éléments radioactifs;substances connexes","titulaire":"SOCIETE DES MINES DE JOUAC","departements":"Aveyron"}},{"type":"Feature","geometry":{"type":"Point","coordinates":[1.8312,46.3476]},"properties":{"nom":"Fournioux","type":"permis d'exploitation","statut":"échu","substances":"uranium;autres éléments radioactifs;substances connexes","titulaire":"CFMU","departements":"Creuse"}},{"type":"Feature","geometry":{"type":"Point","coordinates":[1.3597,46.1274]},"properties":{"nom":"Gartempe","type":"concession","statut":"échu","substances":"uranium;autres éléments radioactifs;substances connexes","titulaire":"ORANO DEMANTELEMENT","departements":"Haute-Vienne"}},{"type":"Feature","geometry":{"type":"Point","coordinates":[-3.3119,47.9954]},"properties":{"nom":"Lignol","type":"concession","statut":"échu","substances":"uranium;autres éléments radioactifs;substances connexes","titulaire":"ORANO DEMANTELEMENT","departements":"Finistère;Morbihan"}},{"type":"Feature","geometry":{"type":"Point","coordinates":[3.3521,43.7065]},"properties":{"nom":"Lodévois","type":"concession","statut":"échu","substances":"uranium;autres éléments radioactifs;substances connexes","titulaire":"ORANO DEMANTELEMENT","departements":"Hérault"}},{"type":"Feature","geometry":{"type":"Point","coordinates":[1.2767,46.3117]},"properties":{"nom":"Mailhac-sur-Benaize","type":"concession","statut":"échu","substances":"uranium;autres éléments radioactifs;substances connexes","titulaire":"SOCIETE DES MINES DE JOUAC","departements":"Haute-Vienne"}},{"type":"Feature","geometry":{"type":"Point","coordinates":[-0.8398,46.9113]},"properties":{"nom":"Mallièvre","type":"concession","statut":"échu","substances":"uranium;autres éléments radioactifs;substances connexes","titulaire":"ORANO DEMANTELEMENT","departements":"Deux-Sèvres;Vendée"}},{"type":"Feature","geometry":{"type":"Point","coordinates":[3.6881,44.7399]},"properties":{"nom":"Grandrieu","type":"concession","statut":"échu","substances":"uranium;autres éléments radioactifs;substances connexes","titulaire":"CFMU","departements":"Lozère"}},{"type":"Feature","geometry":{"type":"Point","coordinates":[2.2114,46.197]},"properties":{"nom":"Grands-Champs","type":"permis d'exploitation","statut":"échu","substances":"uranium;autres éléments radioactifs;substances connexes","titulaire":"SOCIETE DES MINES DE JOUAC","departements":"Creuse"}},{"type":"Feature","geometry":{"type":"Point","coordinates":[3.9368,46.7033]},"properties":{"nom":"Grury","type":"concession","statut":"échu","substances":"uranium;autres éléments radioactifs;substances connexes","titulaire":"ORANO DEMANTELEMENT","departements":"Nièvre;Saône-et-Loire"}},{"type":"Feature","geometry":{"type":"Point","coordinates":[-2.4491,47.3424]},"properties":{"nom":"Haut-Mora","type":"concession","statut":"échu","substances":"uranium;autres éléments radioactifs;substances connexes","titulaire":"ORANO DEMANTELEMENT","departements":"Loire-Atlantique"}},{"type":"Feature","geometry":{"type":"Point","coordinates":[2.666,46.0177]},"properties":{"nom":"Montaudot","type":"concession","statut":"échu","substances":"uranium;autres éléments radioactifs;substances connexes","titulaire":"ORANO DEMANTELEMENT","departements":"Puy-de-Dôme"}},{"type":"Feature","geometry":{"type":"Point","coordinates":[3.2239,44.9325]},"properties":{"nom":"Terran","type":"permis d'exploitation","statut":"échu","substances":"uranium;autres éléments radioactifs;substances connexes","titulaire":"COMPAGNIE FRANCAISE DE MOKTA (CFM)","departements":"Cantal;Lozère"}},{"type":"Feature","geometry":{"type":"Point","coordinates":[1.9268,46.2956]},"properties":{"nom":"Montilloux","type":"concession","statut":"échu","substances":"uranium;autres éléments radioactifs;substances connexes","titulaire":"COMPAGNIE FRANCAISE DE MOKTA (CFM)","departements":"Creuse"}},{"type":"Feature","geometry":{"type":"Point","coordinates":[-2.4479,47.3436]},"properties":{"nom":"Tesson-la-Garenne","type":"permis d'exploitation","statut":"échu","substances":"uranium;autres éléments radioactifs;substances connexes","titulaire":"ORANO DEMANTELEMENT","departements":"Loire-Atlantique"}},{"type":"Feature","geometry":{"type":"Point","coordinates":[2.1472,45.823]},"properties":{"nom":"Hyverneresse","type":"concession","statut":"échu","substances":"uranium;autres éléments radioactifs;substances connexes","titulaire":"COMPAGNIE FRANCAISE DE MOKTA (CFM)","departements":"Creuse"}},{"type":"Feature","geometry":{"type":"Point","coordinates":[2.0202,45.3989]},"properties":{"nom":"Vedrenne-Sud","type":"permis d'exploitation","statut":"échu","substances":"uranium;autres éléments radioactifs;substances connexes","titulaire":"COMPAGNIE INDUSTRIELLE ET MINIERE (CIM)","departements":"Corrèze"}},{"type":"Feature","geometry":{"type":"Point","coordinates":[2.6517,46.4253]},"properties":{"nom":"Verneix","type":"concession","statut":"échu","substances":"uranium;autres éléments radioactifs;substances connexes","titulaire":"COMPAGNIE FRANCAISE DE MOKTA (CFM)","departements":"Allier"}},{"type":"Feature","geometry":{"type":"Point","coordinates":[2.1522,45.1167]},"properties":{"nom":"Jaladis","type":"concession","statut":"échu","substances":"uranium;autres éléments radioactifs;substances connexes","titulaire":"SOCIETE DES MINES D'URANIUM DU CENTRE","departements":"Corrèze"}},{"type":"Feature","geometry":{"type":"Point","coordinates":[2.0842,45.427]},"properties":{"nom":"La Barrière","type":"permis d'exploitation","statut":"échu","substances":"uranium;autres éléments radioactifs;substances connexes","titulaire":"SOC PECHINEY SAINT GOBAIN","departements":"Corrèze"}},{"type":"Feature","geometry":{"type":"Point","coordinates":[2.1399,45.1619]},"properties":{"nom":"La Besse","type":"concession","statut":"échu","substances":"uranium;autres éléments radioactifs;substances connexes","titulaire":"SOCIETE DES MINES D'URANIUM DU CENTRE","departements":"Corrèze"}},{"type":"Feature","geometry":{"type":"Point","coordinates":[1.7817,46.2763]},"properties":{"nom":"Vignaud","type":"permis exclusif de recherches","statut":"échu","substances":"uranium;autres éléments radioactifs;substances connexes","titulaire":"CFMU","departements":"Creuse"}},{"type":"Feature","geometry":{"type":"Point","coordinates":[1.9699,45.3223]},"properties":{"nom":"Peuch","type":"concession","statut":"échu","substances":"uranium;autres éléments radioactifs;substances connexes","titulaire":"COMPAGNIE FRANCAISE DE MOKTA (CFM)","departements":"Corrèze"}},{"type":"Feature","geometry":{"type":"Point","coordinates":[1.3244,46.2086]},"properties":{"nom":"Lacour","type":"concession","statut":"valide","substances":"uranium;autres éléments radioactifs;substances connexes","titulaire":"ORANO DEMANTELEMENT","departements":"Haute-Vienne"}},{"type":"Feature","geometry":{"type":"Point","coordinates":[3.8981,45.2748]},"properties":{"nom":"La Garde","type":"permis exclusif de recherches","statut":"échu","substances":"uranium;autres éléments radioactifs;substances connexes","titulaire":"COMPAGNIE INDUSTRIELLE ET MINIERE (CIM)","departements":"Haute-Loire"}},{"type":"Feature","geometry":{"type":"Point","coordinates":[2.1023,45.6576]},"properties":{"nom":"Puy Curade","type":"concession","statut":"échu","substances":"uranium;autres éléments radioactifs;substances connexes","titulaire":"SOCIETE DES MINES DE JOUAC","departements":"Corrèze"}},{"type":"Feature","geometry":{"type":"Point","coordinates":[2.3751,45.4022]},"properties":{"nom":"Puy de Teldes","type":"concession","statut":"échu","substances":"uranium;autres éléments radioactifs;substances connexes","titulaire":"SOCIETE DES MINES DE JOUAC","departements":"Cantal"}},{"type":"Feature","geometry":{"type":"Point","coordinates":[2.1525,45.1089]},"properties":{"nom":"La Porte","type":"concession","statut":"échu","substances":"uranium;autres éléments radioactifs;substances connexes","titulaire":"SOCIETE DES MINES DE JOUAC","departements":"Corrèze"}},{"type":"Feature","geometry":{"type":"Point","coordinates":[6.2981,45.3957]},"properties":{"nom":"Lauzière","type":"permis exclusif de recherches","statut":"échu","substances":"uranium;autres éléments radioactifs;substances connexes","titulaire":"Minatome SA","departements":"Savoie"}},{"type":"Feature","geometry":{"type":"Point","coordinates":[2.7627,44.387]},"properties":{"nom":"Balaures","type":"concession","statut":"échu","substances":"uranium;autres éléments radioactifs;substances connexes","titulaire":"SOCIETE DES MINES DE JOUAC","departements":"Aveyron"}},{"type":"Feature","geometry":{"type":"Point","coordinates":[1.8469,45.4269]},"properties":{"nom":"Beaumont","type":"concession","statut":"échu","substances":"uranium;autres éléments radioactifs;substances connexes","titulaire":"COMPAGNIE FRANCAISE DE MOKTA (CFM)","departements":"Corrèze"}},{"type":"Feature","geometry":{"type":"Point","coordinates":[3.0966,44.8525]},"properties":{"nom":"Bès","type":"permis d'exploitation","statut":"échu","substances":"uranium;autres éléments radioactifs;substances connexes","titulaire":"COMPAGNIE FRANCAISE DE MOKTA (CFM)","departements":"Cantal;Lozère"}},{"type":"Feature","geometry":{"type":"Point","coordinates":[-2.5742,47.371]},"properties":{"nom":"Bichet","type":"permis d'exploitation","statut":"échu","substances":"uranium;autres éléments radioactifs;substances connexes","titulaire":"ORANO DEMANTELEMENT","departements":"Finistère;Loire-Atlantique;Morbihan"}},{"type":"Feature","geometry":{"type":"Point","coordinates":[3.7459,45.9438]},"properties":{"nom":"Bois Noirs","type":"concession","statut":"échu","substances":"uranium;autres éléments radioactifs;substances connexes","titulaire":"ORANO DEMANTELEMENT","departements":"Allier;Loire;Puy-de-Dôme"}},{"type":"Feature","geometry":{"type":"Point","coordinates":[2.0901,45.4934]},"properties":{"nom":"Boucheron","type":"concession","statut":"échu","substances":"uranium;autres éléments radioactifs;substances connexes","titulaire":"COMPAGNIE FRANCAISE DE MOKTA (CFM)","departements":"Corrèze"}},{"type":"Feature","geometry":{"type":"Point","coordinates":[-2.556,47.3731]},"properties":{"nom":"Castelli","type":"permis d'exploitation","statut":"échu","substances":"uranium;autres éléments radioactifs;substances connexes","titulaire":"ORANO DEMANTELEMENT","departements":"Finistère;Loire-Atlantique;Morbihan"}},{"type":"Feature","geometry":{"type":"Point","coordinates":[3.8846,47.0632]},"properties":{"nom":"Chaumottes","type":"permis d'exploitation","statut":"échu","substances":"uranium;autres éléments radioactifs;substances connexes","titulaire":"ORANO DEMANTELEMENT","departements":"Nièvre"}},{"type":"Feature","geometry":{"type":"Point","coordinates":[2.1525,45.1089]},"properties":{"nom":"La Porte","type":"permis d'exploitation","statut":"échu","substances":"uranium;autres éléments radioactifs;substances connexes","titulaire":"SOCIETE DES MINES DE JOUAC","departements":"Corrèze"}},{"type":"Feature","geometry":{"type":"Point","coordinates":[-1.1712,47.0826]},"properties":{"nom":"Clisson","type":"concession","statut":"échu","substances":"uranium;autres éléments radioactifs;substances connexes","titulaire":"ORANO DEMANTELEMENT","departements":"Loire-Atlantique;Maine-et-Loire;Vendée"}},{"type":"Feature","geometry":{"type":"Point","coordinates":[1.0053,45.8367]},"properties":{"nom":"Cognac-le-Froid","type":"permis d'exploitation","statut":"échu","substances":"uranium;autres éléments radioactifs;substances connexes","titulaire":"ORANO DEMANTELEMENT","departements":"Haute-Vienne"}},{"type":"Feature","geometry":{"type":"Point","coordinates":[2.128,45.1429]},"properties":{"nom":"Clamensac","type":"permis exclusif de recherches","statut":"échu","substances":"uranium;autres éléments radioactifs;substances connexes","titulaire":"COMPAGNIE FRANCAISE DE MOKTA (CFM)","departements":"Corrèze"}},{"type":"Feature","geometry":{"type":"Point","coordinates":[-0.1018,45.1531]},"properties":{"nom":"Croix-de-la-Lirette","type":"concession","statut":"échu","substances":"uranium;autres éléments radioactifs;substances connexes","titulaire":"ORANO DEMANTELEMENT","departements":"Charente-Maritime"}},{"type":"Feature","geometry":{"type":"Point","coordinates":[2.9394,46.5862]},"properties":{"nom":"Maillerie","type":"concession","statut":"valide","substances":"uranium;autres éléments radioactifs;substances connexes","titulaire":"ORANO DEMANTELEMENT","departements":"Allier"}},{"type":"Feature","geometry":{"type":"Point","coordinates":[2.9965,46.5496]},"properties":{"nom":"Blanchetière","type":"concession","statut":"valide","substances":"uranium;autres éléments radioactifs;substances connexes","titulaire":"ORANO DEMANTELEMENT","departements":"Allier"}},{"type":"Feature","geometry":{"type":"Point","coordinates":[3.7633,45.5211]},"properties":{"nom":"Chaumont-le-Bourg","type":"permis exclusif de recherches","statut":"échu","substances":"uranium;autres éléments radioactifs;substances connexes","titulaire":"ORANO DEMANTELEMENT","departements":"Puy-de-Dôme"}},{"type":"Feature","geometry":{"type":"Point","coordinates":[2.0639,45.744]},"properties":{"nom":"Drouillat","type":"concession","statut":"échu","substances":"uranium;autres éléments radioactifs;substances connexes","titulaire":"COMPAGNIE FRANCAISE DE MOKTA (CFM)","departements":"Corrèze;Creuse"}},{"type":"Feature","geometry":{"type":"Point","coordinates":[2.9421,44.3357]},"properties":{"nom":"Fabreguettes","type":"concession","statut":"échu","substances":"uranium;autres éléments radioactifs;substances connexes","titulaire":"ORANO DEMANTELEMENT","departements":"Aveyron"}},{"type":"Feature","geometry":{"type":"Point","coordinates":[1.5844,46.267]},"properties":{"nom":"Le Fresse","type":"concession","statut":"échu","substances":"uranium;autres éléments radioactifs;substances connexes","titulaire":"SOCIETE DES MINES DE JOUAC","departements":"Creuse"}},{"type":"Feature","geometry":{"type":"Point","coordinates":[2.7537,46.3664]},"properties":{"nom":"Les Prugnes","type":"concession","statut":"échu","substances":"uranium;autres éléments radioactifs;substances connexes","titulaire":"COMPAGNIE FRANCAISE DE MOKTA (CFM)","departements":"Allier"}},{"type":"Feature","geometry":{"type":"Point","coordinates":[2.1183,45.6982]},"properties":{"nom":"Morneix","type":"concession","statut":"échu","substances":"uranium;autres éléments radioactifs;substances connexes","titulaire":"COMPAGNIE FRANCAISE DE MOKTA (CFM)","departements":"Corrèze;Creuse"}},{"type":"Feature","geometry":{"type":"Point","coordinates":[1.883,45.998]},"properties":{"nom":"Pontarion","type":"permis exclusif de recherches","statut":"échu","substances":"uranium;autres éléments radioactifs;substances connexes","titulaire":"SOCIETE DES MINES DE JOUAC","departements":"Creuse"}},{"type":"Feature","geometry":{"type":"Point","coordinates":[-0.0686,45.1343]},"properties":{"nom":"Saint-James-la-Croix","type":"concession","statut":"échu","substances":"uranium;autres éléments radioactifs;substances connexes","titulaire":"ORANO DEMANTELEMENT","departements":"Charente-Maritime"}},{"type":"Feature","geometry":{"type":"Point","coordinates":[2.0851,45.9149]},"properties":{"nom":"Margnot","type":"permis exclusif de recherches","statut":"échu","substances":"uranium;autres éléments radioactifs;substances connexes","titulaire":"SOCIETE DES MINES DE JOUAC","departements":"Creuse"}},{"type":"Feature","geometry":{"type":"Point","coordinates":[3.3363,45.6494]},"properties":{"nom":"Sallèdes","type":"permis exclusif de recherches","statut":"échu","substances":"uranium;autres éléments radioactifs;substances connexes","titulaire":"ORANO DEMANTELEMENT","departements":"Puy-de-Dôme"}},{"type":"Feature","geometry":{"type":"Point","coordinates":[3.4697,45.9548]},"properties":{"nom":"Paslières","type":"permis exclusif de recherches","statut":"échu","substances":"uranium;autres éléments radioactifs;substances connexes","titulaire":"ORANO DEMANTELEMENT","departements":"Allier;Puy-de-Dôme"}},{"type":"Feature","geometry":{"type":"Point","coordinates":[3.5039,45.4992]},"properties":{"nom":"Bessière","type":"permis exclusif de recherches","statut":"échu","substances":"uranium;autres éléments radioactifs;substances connexes","titulaire":"ORANO DEMANTELEMENT","departements":"Puy-de-Dôme"}},{"type":"Feature","geometry":{"type":"Point","coordinates":[3.3654,45.7815]},"properties":{"nom":"Reignat","type":"permis exclusif de recherches","statut":"échu","substances":"uranium;autres éléments radioactifs;substances connexes","titulaire":"ELF AQUITAINE PRODUCTION","departements":"Puy-de-Dôme"}},{"type":"Feature","geometry":{"type":"Point","coordinates":[-3.3978,47.9944]},"properties":{"nom":"Vouedec","type":"permis d'exploitation","statut":"échu","substances":"uranium;autres éléments radioactifs;substances connexes","titulaire":"GSM OUEST-PAYS DE LOIRE","departements":"Morbihan"}},{"type":"Feature","geometry":{"type":"Point","coordinates":[3.9086,45.1854]},"properties":{"nom":"Vorey","type":"permis exclusif de recherches","statut":"échu","substances":"uranium;autres éléments radioactifs;substances connexes","titulaire":"RESS (Société de Recherche pour l'Exploitation du Sous-Sol)","departements":"Haute-Loire"}},{"type":"Feature","geometry":{"type":"Point","coordinates":[2.0901,45.4934]},"properties":{"nom":"Boucheron","type":"permis d'exploitation","statut":"échu","substances":"uranium;autres éléments radioactifs;substances connexes","titulaire":"ORANO DEMANTELEMENT","departements":"Corrèze"}},{"type":"Feature","geometry":{"type":"Point","coordinates":[1.9592,46.2927]},"properties":{"nom":"Montagaud","type":"permis d'exploitation","statut":"échu","substances":"uranium;autres éléments radioactifs;substances connexes","titulaire":"CFMU","departements":"Creuse"}}]}